[
    {
        "name": "Sentier des C\u00f4teaux",
        "lat": 2.2937109,
        "lon": 48.7941942,
        "description": "Non sp\u00e9cifi\u00e9",
        "distance": "0.41 km"
    },
    {
        "name": "Grande boucle du Pays de Limours",
        "lat": 2.1536058,
        "lon": 48.6477339,
        "description": "Non spécifié",
        "distance": "0.89 km"
    },
    {
        "name": "GR de Pays du Hurepoix",
        "lat": 2.166294,
        "lon": 48.7500937,
        "description": "Non sp\u00e9cifi\u00e9",
        "distance": "1.44 km"
    },
    {
        "name": "Sentier de l'Essonne",
        "lat": 1.9914255,
        "lon": 48.5075787,
        "description": "Non sp\u00e9cifi\u00e9",
        "distance": "1.81 km"
    },
    {
        "name": "La for\u00eat de Carnelle",
        "lat": 2.3218667,
        "lon": 49.1190052,
        "description": "Non sp\u00e9cifi\u00e9",
        "distance": "0.18 km"
    },
    {
        "name": "Travers\u00e9e de Paris n\u00b02",
        "lat": 2.3782462,
        "lon": 48.876759,
        "description": "Non sp\u00e9cifi\u00e9",
        "distance": "0.21 km"
    },
    {
        "name": "Travers\u00e9e de Paris n\u00b03",
        "lat": 2.3856571,
        "lon": 48.8713252,
        "description": "Non sp\u00e9cifi\u00e9",
        "distance": "0.28 km"
    },
    {
        "name": "Bords de Marne",
        "lat": 2.4201466,
        "lon": 48.8160798,
        "description": "Non sp\u00e9cifi\u00e9",
        "distance": "0.31 km"
    },
    {
        "name": "Bois de Boulogne",
        "lat": 2.254154,
        "lon": 48.8736911,
        "description": "Non sp\u00e9cifi\u00e9",
        "distance": "0.11 km"
    },
    {
        "name": "Sentier des forts",
        "lat": 2.3250559,
        "lon": 48.8038487,
        "description": "Non sp\u00e9cifi\u00e9",
        "distance": "0.66 km"
    },
    {
        "name": "Sentier des \u00eeles",
        "lat": 2.2604172,
        "lon": 48.8845388,
        "description": "Non sp\u00e9cifi\u00e9",
        "distance": "0.49 km"
    },
    {
        "name": "Sentier des buttes",
        "lat": 2.3113016,
        "lon": 48.80895,
        "description": "Non sp\u00e9cifi\u00e9",
        "distance": "0.46 km"
    },
    {
        "name": "Sentier des berges",
        "lat": 2.1944302,
        "lon": 48.904623,
        "description": "Non sp\u00e9cifi\u00e9",
        "distance": "0.43 km"
    },
    {
        "name": "Sentier des bois",
        "lat": 2.1670669,
        "lon": 48.8406822,
        "description": "Non sp\u00e9cifi\u00e9",
        "distance": "0.40 km"
    },
    {
        "name": "Sentier des rus",
        "lat": 2.2875064,
        "lon": 48.7458158,
        "description": "Non sp\u00e9cifi\u00e9",
        "distance": "0.27 km"
    },
    {
        "name": "Non sp\u00e9cifi\u00e9",
        "lat": 2.264293,
        "lon": 48.5816314,
        "description": "Non sp\u00e9cifi\u00e9",
        "distance": "0.28 km"
    },
    {
        "name": "Bords de Canal de l'Ourcq",
        "lat": 2.3879426,
        "lon": 48.892832,
        "description": "Non sp\u00e9cifi\u00e9",
        "distance": "0.20 km"
    },
    {
        "name": "Entre Seine et S\u00e9nart",
        "lat": 2.4199255,
        "lon": 48.6645712,
        "description": "Non sp\u00e9cifi\u00e9",
        "distance": "0.12 km"
    },
    {
        "name": "Chemin des Marais",
        "lat": 2.3065055,
        "lon": 48.5160823,
        "description": "Non sp\u00e9cifi\u00e9",
        "distance": "0.54 km"
    },
    {
        "name": "Sur la Rive Gauche de la Bi\u00e8vre",
        "lat": 2.2672193,
        "lon": 48.7775315,
        "description": "Non sp\u00e9cifi\u00e9",
        "distance": "0.32 km"
    },
    {
        "name": "GRP des Vall\u00e9es et For\u00eats Briardes",
        "lat": 2.7407329,
        "lon": 48.6525484,
        "description": "Non sp\u00e9cifi\u00e9",
        "distance": "0.73 km"
    },
    {
        "name": "Non sp\u00e9cifi\u00e9",
        "lat": 2.5473909,
        "lon": 48.5364463,
        "description": "Non sp\u00e9cifi\u00e9",
        "distance": "0.90 km"
    },
    {
        "name": "Non sp\u00e9cifi\u00e9",
        "lat": 2.3496061,
        "lon": 48.8579777,
        "description": "Non sp\u00e9cifi\u00e9",
        "distance": "0.93 km"
    },
    {
        "name": "Non sp\u00e9cifi\u00e9",
        "lat": 2.3471139,
        "lon": 48.8535923,
        "description": "Non sp\u00e9cifi\u00e9",
        "distance": "0.13 km"
    },
    {
        "name": "Non sp\u00e9cifi\u00e9",
        "lat": 2.1630249,
        "lon": 48.695527,
        "description": "Non sp\u00e9cifi\u00e9",
        "distance": "0.13 km"
    },
    {
        "name": "PR 13",
        "lat": 2.2435606,
        "lon": 48.6360638,
        "description": "Non sp\u00e9cifi\u00e9",
        "distance": "0.21 km"
    },
    {
        "name": "Non sp\u00e9cifi\u00e9",
        "lat": 2.1696659,
        "lon": 48.6816007,
        "description": "Non sp\u00e9cifi\u00e9",
        "distance": "0.20 km"
    },
    {
        "name": "n\u00b01 La Guyonnerie",
        "lat": 2.1590336,
        "lon": 48.6970081,
        "description": "Non sp\u00e9cifi\u00e9",
        "distance": "0.12 km"
    },
    {
        "name": "PR 11",
        "lat": 2.2396981,
        "lon": 48.7117534,
        "description": "Non sp\u00e9cifi\u00e9",
        "distance": "0.14 km"
    },
    {
        "name": "Sentier du Cheval",
        "lat": 2.1520816,
        "lon": 48.8254277,
        "description": "Non sp\u00e9cifi\u00e9",
        "distance": "0.15 km"
    },
    {
        "name": "Non sp\u00e9cifi\u00e9",
        "lat": 2.578358,
        "lon": 49.2064318,
        "description": "Non sp\u00e9cifi\u00e9",
        "distance": "0.55 km"
    },
    {
        "name": "Promenade de l'Orge",
        "lat": 2.3597992,
        "lon": 48.6731629,
        "description": "Non sp\u00e9cifi\u00e9",
        "distance": "0.49 km"
    },
    {
        "name": "Grand Tour de Paris (03), Magny-en-Vexin - Montagny-Prouvaire",
        "lat": 1.789172,
        "lon": 49.1560452,
        "description": "Non sp\u00e9cifi\u00e9",
        "distance": "0.57 km"
    },
    {
        "name": "Sentier des 3 Vall\u00e9es",
        "lat": 2.2967239,
        "lon": 48.752441,
        "description": "Non sp\u00e9cifi\u00e9",
        "distance": "0.34 km"
    },
    {
        "name": "L'Essonne - De l'Etampois au Val d'Yerres",
        "lat": 2.2469997,
        "lon": 48.5933443,
        "description": "Non sp\u00e9cifi\u00e9",
        "distance": "2.14 km"
    },
    {
        "name": "Grand Tour de Paris (12), Franchard - Villiers-Saint-Fr\u00e9d\u00e9ric",
        "lat": 1.879858,
        "lon": 48.8212172,
        "description": "Non sp\u00e9cifi\u00e9",
        "distance": "1.84 km"
    },
    {
        "name": "Le Grand Tour de Villebon",
        "lat": 2.2699382,
        "lon": 48.6999841,
        "description": "Non sp\u00e9cifi\u00e9",
        "distance": "0.16 km"
    },
    {
        "name": "Grand Tour de Paris, liaison Pont d\u2019Austerlitz",
        "lat": 2.3658124,
        "lon": 48.8448434,
        "description": "Non sp\u00e9cifi\u00e9",
        "distance": "0.75 km"
    },
    {
        "name": "via Turonensis, Palaiseau - Rambouillet",
        "lat": 1.837097,
        "lon": 48.6385059,
        "description": "Non sp\u00e9cifi\u00e9",
        "distance": "0.60 km"
    },
    {
        "name": "Non sp\u00e9cifi\u00e9",
        "lat": 2.2818848,
        "lon": 48.751803,
        "description": "Non sp\u00e9cifi\u00e9",
        "distance": "0.17 km"
    },
    {
        "name": "Via Turonensis par Orl\u00e9ans, Palaiseau - Etr\u00e9chy",
        "lat": 2.2468292,
        "lon": 48.5932026,
        "description": "Non sp\u00e9cifi\u00e9",
        "distance": "0.52 km"
    },
    {
        "name": "de Versailles \u00e0 Verneuil",
        "lat": 1.193604,
        "lon": 48.7673979,
        "description": "Non sp\u00e9cifi\u00e9",
        "distance": "1.94 km"
    },
    {
        "name": "de Paris \u00e0 Versailles",
        "lat": 2.1471033,
        "lon": 48.7709219,
        "description": "Non sp\u00e9cifi\u00e9",
        "distance": "0.35 km"
    },
    {
        "name": "Non sp\u00e9cifi\u00e9",
        "lat": 2.3471139,
        "lon": 48.8535923,
        "description": "Non sp\u00e9cifi\u00e9",
        "distance": "3.80 km"
    },
    {
        "name": "Non sp\u00e9cifi\u00e9",
        "lat": 2.4368929,
        "lon": 48.7844272,
        "description": "Non sp\u00e9cifi\u00e9",
        "distance": "0.95 km"
    },
    {
        "name": "Grand Tour de Paris (04), Montagny-Prouvaire - La Fert\u00e9-Milon",
        "lat": 2.8819637,
        "lon": 49.2373816,
        "description": "Non sp\u00e9cifi\u00e9",
        "distance": "1.48 km"
    },
    {
        "name": "Boucle de l'Yerres",
        "lat": 2.4990783,
        "lon": 48.7299535,
        "description": "Non sp\u00e9cifi\u00e9",
        "distance": "0.18 km"
    },
    {
        "name": "Les Portes de Paris",
        "lat": 2.2795716,
        "lon": 48.878371,
        "description": "Non sp\u00e9cifi\u00e9",
        "distance": "0.60 km"
    },
    {
        "name": "Travers\u00e9e de Paris n\u00b01",
        "lat": 2.2866355,
        "lon": 48.8566462,
        "description": "Non sp\u00e9cifi\u00e9",
        "distance": "0.21 km"
    },
    {
        "name": "Un parcours, trois histoires",
        "lat": 2.410794,
        "lon": 48.853482,
        "description": "Non sp\u00e9cifi\u00e9",
        "distance": "0.15 km"
    },
    {
        "name": "Non sp\u00e9cifi\u00e9",
        "lat": 2.3548622,
        "lon": 48.8028683,
        "description": "Non sp\u00e9cifi\u00e9",
        "distance": "0.14 km"
    },
    {
        "name": "Entre Plateau et Vall\u00e9e \u00e0 Gif",
        "lat": 2.0994588,
        "lon": 48.701115,
        "description": "Non sp\u00e9cifi\u00e9",
        "distance": "0.12 km"
    },
    {
        "name": "Circuit d'\u00c9couen",
        "lat": 2.3673309,
        "lon": 49.0268346,
        "description": "Non sp\u00e9cifi\u00e9",
        "distance": "0.22 km"
    },
    {
        "name": "Rigoles du plateau",
        "lat": 2.2169152,
        "lon": 48.7304458,
        "description": "Non sp\u00e9cifi\u00e9",
        "distance": "0.11 km"
    },
    {
        "name": "Sentier des Parcs",
        "lat": 2.2680237,
        "lon": 48.9033778,
        "description": "Non sp\u00e9cifi\u00e9",
        "distance": "0.35 km"
    },
    {
        "name": "L'Abbaye aux bois",
        "lat": 2.2221605,
        "lon": 48.7554284,
        "description": "Non sp\u00e9cifi\u00e9",
        "distance": "0.13 km"
    },
    {
        "name": "Le Grand Chemin",
        "lat": 2.4225038,
        "lon": 48.887631,
        "description": "Non sp\u00e9cifi\u00e9",
        "distance": "0.26 km"
    },
    {
        "name": "Non sp\u00e9cifi\u00e9",
        "lat": 2.1054059,
        "lon": 48.9215827,
        "description": "Non sp\u00e9cifi\u00e9",
        "distance": "0.20 km"
    },
    {
        "name": "Travers\u00e9e de Paris n\u00b04",
        "lat": 2.2698508,
        "lon": 48.8468363,
        "description": "Non sp\u00e9cifi\u00e9",
        "distance": "0.21 km"
    },
    {
        "name": "Les quarante arpents",
        "lat": 2.191085,
        "lon": 49.08769,
        "description": "Non sp\u00e9cifi\u00e9",
        "distance": "0.11 km"
    },
    {
        "name": "Le chemin des Croix",
        "lat": 2.1170027,
        "lon": 49.1387402,
        "description": "Non sp\u00e9cifi\u00e9",
        "distance": "0.11 km"
    },
    {
        "name": "Le parc d\u00e9partemental Georges-Valbon",
        "lat": 2.3854233,
        "lon": 48.9301313,
        "description": "Non sp\u00e9cifi\u00e9",
        "distance": "0.14 km"
    },
    {
        "name": "Aux marches de Luzarches",
        "lat": 2.4846904,
        "lon": 49.1390247,
        "description": "Non sp\u00e9cifi\u00e9",
        "distance": "0.24 km"
    },
    {
        "name": "Une \u00cele au milieu du fleuve",
        "lat": 2.3407581,
        "lon": 48.9358148,
        "description": "Non sp\u00e9cifi\u00e9",
        "distance": "0.14 km"
    },
    {
        "name": "For\u00eat de Verri\u00e8res",
        "lat": 2.2329861,
        "lon": 48.7613898,
        "description": "Non sp\u00e9cifi\u00e9",
        "distance": "0.12 km"
    },
    {
        "name": "Sentier des Lisi\u00e8res",
        "lat": 2.334889,
        "lon": 49.0132007,
        "description": "Non sp\u00e9cifi\u00e9",
        "distance": "0.38 km"
    },
    {
        "name": "La Grande Echapp\u00e9e",
        "lat": 2.7175973,
        "lon": 49.2061364,
        "description": "Non sp\u00e9cifi\u00e9",
        "distance": "0.12 km"
    },
    {
        "name": "L'Abbaye de Chaalis",
        "lat": 2.6929047,
        "lon": 49.125598,
        "description": "Non sp\u00e9cifi\u00e9",
        "distance": "0.16 km"
    },
    {
        "name": "Circuit de Bouff\u00e9mont",
        "lat": 2.2983036,
        "lon": 49.0467299,
        "description": "Non sp\u00e9cifi\u00e9",
        "distance": "0.14 km"
    },
    {
        "name": "Parcours randonn\u00e9e",
        "lat": 2.1015044,
        "lon": 48.8265363,
        "description": "Non sp\u00e9cifi\u00e9",
        "distance": "0.13 km"
    },
    {
        "name": "Non sp\u00e9cifi\u00e9",
        "lat": 2.0713645,
        "lon": 48.7010387,
        "description": "Non sp\u00e9cifi\u00e9",
        "distance": "0.26 km"
    },
    {
        "name": "Non sp\u00e9cifi\u00e9",
        "lat": 2.2818848,
        "lon": 48.751803,
        "description": "Non sp\u00e9cifi\u00e9",
        "distance": "0.15 km"
    },
    {
        "name": "Non sp\u00e9cifi\u00e9",
        "lat": 2.2515992,
        "lon": 48.5875456,
        "description": "Non sp\u00e9cifi\u00e9",
        "distance": "0.29 km"
    },
    {
        "name": "Non sp\u00e9cifi\u00e9",
        "lat": 2.8799005,
        "lon": 48.9505539,
        "description": "Non sp\u00e9cifi\u00e9",
        "distance": "0.67 km"
    },
    {
        "name": "Non sp\u00e9cifi\u00e9",
        "lat": 2.8799005,
        "lon": 48.9505539,
        "description": "Non sp\u00e9cifi\u00e9",
        "distance": "0.87 km"
    },
    {
        "name": "Non sp\u00e9cifi\u00e9",
        "lat": 1.9891697,
        "lon": 48.8838128,
        "description": "Non sp\u00e9cifi\u00e9",
        "distance": "0.48 km"
    },
    {
        "name": "Non sp\u00e9cifi\u00e9",
        "lat": 2.0008063,
        "lon": 48.9811094,
        "description": "Non sp\u00e9cifi\u00e9",
        "distance": "1.52 km"
    },
    {
        "name": "Via Sancti Martini HW-60-11 Varredes - Claye-Souilly",
        "lat": 2.6912145,
        "lon": 48.9452861,
        "description": "Non sp\u00e9cifi\u00e9",
        "distance": "0.34 km"
    },
    {
        "name": "Via Sancti Martini HW-60-12 Claye-Souilly - Igny",
        "lat": 2.3496457,
        "lon": 48.8579676,
        "description": "Non sp\u00e9cifi\u00e9",
        "distance": "0.77 km"
    },
    {
        "name": "La corniche des forts",
        "lat": 2.4230319,
        "lon": 48.8915221,
        "description": "Non sp\u00e9cifi\u00e9",
        "distance": "0.17 km"
    },
    {
        "name": "Sentier neuf",
        "lat": 2.3001391,
        "lon": 48.9087484,
        "description": "Non sp\u00e9cifi\u00e9",
        "distance": "0.17 km"
    },
    {
        "name": "Une balade en couleurs",
        "lat": 2.3346488,
        "lon": 48.9110122,
        "description": "Non sp\u00e9cifi\u00e9",
        "distance": "0.10 km"
    },
    {
        "name": "Non sp\u00e9cifi\u00e9",
        "lat": 2.3067519,
        "lon": 48.9733175,
        "description": "Non sp\u00e9cifi\u00e9",
        "distance": "0.13 km"
    },
    {
        "name": "La Brie Verte - Boucle 1 - De Notre Dame \u00e0 Ferri\u00e8res",
        "lat": 2.6178409,
        "lon": 48.8087127,
        "description": "Non sp\u00e9cifi\u00e9",
        "distance": "0.86 km"
    },
    {
        "name": "Non sp\u00e9cifi\u00e9",
        "lat": 2.5382567,
        "lon": 48.6806336,
        "description": "Non sp\u00e9cifi\u00e9",
        "distance": "0.15 km"
    },
    {
        "name": "Non sp\u00e9cifi\u00e9",
        "lat": 2.5329287,
        "lon": 48.6807825,
        "description": "Non sp\u00e9cifi\u00e9",
        "distance": "0.15 km"
    },
    {
        "name": "Non sp\u00e9cifi\u00e9",
        "lat": 2.4102168,
        "lon": 48.6726765,
        "description": "Non sp\u00e9cifi\u00e9",
        "distance": "0.13 km"
    },
    {
        "name": "Non sp\u00e9cifi\u00e9",
        "lat": 2.2894613,
        "lon": 48.676691,
        "description": "Non sp\u00e9cifi\u00e9",
        "distance": "0.17 km"
    },
    {
        "name": "Non sp\u00e9cifi\u00e9",
        "lat": 2.2403398,
        "lon": 48.7061013,
        "description": "Non sp\u00e9cifi\u00e9",
        "distance": "0.24 km"
    },
    {
        "name": "Non sp\u00e9cifi\u00e9",
        "lat": 2.1464535,
        "lon": 48.770577,
        "description": "Non sp\u00e9cifi\u00e9",
        "distance": "0.23 km"
    },
    {
        "name": "Non sp\u00e9cifi\u00e9",
        "lat": 2.0490129,
        "lon": 48.9192402,
        "description": "Non sp\u00e9cifi\u00e9",
        "distance": "0.12 km"
    },
    {
        "name": "Non sp\u00e9cifi\u00e9",
        "lat": 2.0909196,
        "lon": 49.0232103,
        "description": "Non sp\u00e9cifi\u00e9",
        "distance": "0.19 km"
    },
    {
        "name": "Non sp\u00e9cifi\u00e9",
        "lat": 2.101513,
        "lon": 48.9833182,
        "description": "Non sp\u00e9cifi\u00e9",
        "distance": "0.12 km"
    },
    {
        "name": "Non sp\u00e9cifi\u00e9",
        "lat": 2.2493851,
        "lon": 49.0368429,
        "description": "Non sp\u00e9cifi\u00e9",
        "distance": "0.17 km"
    },
    {
        "name": "Non sp\u00e9cifi\u00e9",
        "lat": 2.3518318,
        "lon": 48.9699991,
        "description": "Non sp\u00e9cifi\u00e9",
        "distance": "0.14 km"
    },
    {
        "name": "Non sp\u00e9cifi\u00e9",
        "lat": 2.4140414,
        "lon": 48.9454703,
        "description": "Non sp\u00e9cifi\u00e9",
        "distance": "0.21 km"
    },
    {
        "name": "Non sp\u00e9cifi\u00e9",
        "lat": 2.5699611,
        "lon": 48.9244411,
        "description": "Non sp\u00e9cifi\u00e9",
        "distance": "0.22 km"
    },
    {
        "name": "Non sp\u00e9cifi\u00e9",
        "lat": 2.5951091,
        "lon": 48.8175345,
        "description": "Non sp\u00e9cifi\u00e9",
        "distance": "0.13 km"
    },
    {
        "name": "Non sp\u00e9cifi\u00e9",
        "lat": 2.5951091,
        "lon": 48.8175345,
        "description": "Non sp\u00e9cifi\u00e9",
        "distance": "0.10 km"
    },
    {
        "name": "Non sp\u00e9cifi\u00e9",
        "lat": 2.1459257,
        "lon": 48.8372255,
        "description": "Non sp\u00e9cifi\u00e9",
        "distance": "0.13 km"
    },
    {
        "name": "Non sp\u00e9cifi\u00e9",
        "lat": 2.5481743,
        "lon": 48.693612,
        "description": "Non sp\u00e9cifi\u00e9",
        "distance": "0.12 km"
    },
    {
        "name": "Non sp\u00e9cifi\u00e9",
        "lat": 2.4099758,
        "lon": 48.764408,
        "description": "Non sp\u00e9cifi\u00e9",
        "distance": "0.15 km"
    },
    {
        "name": "Non sp\u00e9cifi\u00e9",
        "lat": 2.4099758,
        "lon": 48.764408,
        "description": "Non sp\u00e9cifi\u00e9",
        "distance": "0.16 km"
    },
    {
        "name": "Non sp\u00e9cifi\u00e9",
        "lat": 2.3102311,
        "lon": 48.7708765,
        "description": "Non sp\u00e9cifi\u00e9",
        "distance": "0.15 km"
    },
    {
        "name": "Le circuit de Rosny sous Bois",
        "lat": 2.4847712,
        "lon": 48.8709121,
        "description": "Non sp\u00e9cifi\u00e9",
        "distance": "0.13 km"
    },
    {
        "name": "Sentier de Cosette",
        "lat": 2.570028,
        "lon": 48.9014788,
        "description": "Non sp\u00e9cifi\u00e9",
        "distance": "0.13 km"
    },
    {
        "name": "Panoramas de la Seine \u00e0 la Montagne",
        "lat": 2.2070015,
        "lon": 48.977236,
        "description": "Non sp\u00e9cifi\u00e9",
        "distance": "0.21 km"
    },
    {
        "name": "Boucle de Savigny",
        "lat": 2.5642317,
        "lon": 48.6003595,
        "description": "Non sp\u00e9cifi\u00e9",
        "distance": "0.23 km"
    },
    {
        "name": "De l\u2019Yerres \u00e0 S\u00e9nart",
        "lat": 2.521927,
        "lon": 48.6860685,
        "description": "Non sp\u00e9cifi\u00e9",
        "distance": "0.11 km"
    },
    {
        "name": "Aqueduc de la Dhuys",
        "lat": 2.6293137,
        "lon": 48.8821979,
        "description": "Non sp\u00e9cifi\u00e9",
        "distance": "0.24 km"
    },
    {
        "name": "Vall\u00e9e de la Brosse",
        "lat": 2.7067717,
        "lon": 48.8389512,
        "description": "Non sp\u00e9cifi\u00e9",
        "distance": "0.13 km"
    },
    {
        "name": "L\u2019eau des moines",
        "lat": 2.3944916,
        "lon": 49.1221158,
        "description": "Non sp\u00e9cifi\u00e9",
        "distance": "0.20 km"
    },
    {
        "name": "La for\u00eat de L'Isle-Adam",
        "lat": 2.2358637,
        "lon": 49.0875661,
        "description": "Non sp\u00e9cifi\u00e9",
        "distance": "0.22 km"
    },
    {
        "name": "Circuit de Belloy \u2013 Saint-Martin",
        "lat": 2.3435628,
        "lon": 49.1098577,
        "description": "Non sp\u00e9cifi\u00e9",
        "distance": "0.19 km"
    },
    {
        "name": "En for\u00eat de Saint-Germain",
        "lat": 2.1273606,
        "lon": 48.9608089,
        "description": "Non sp\u00e9cifi\u00e9",
        "distance": "0.12 km"
    }
]